[
	{
		"name": "Bahrain",
		"location": "Sakhir",
		"latitude": 26.037,
		"longitude": 50.5112,
		"round": 1,
		"countryId": "bahrain",
		"circuitId": "bahrain",
		"tbc": false,
		"fp1": "2024-02-29T11:30:00Z",
		"fp2": "2024-02-29T15:00:00Z",
		"fp3": "2024-03-01T11:30:00Z",
		"qualifying": "2024-03-01T15:00:00Z",
		"gp": "2024-03-02T15:00:00Z"
	},
	{
		"name": "Saudi Arabian",
		"location": "Jeddah",
		"latitude": 21.485811,
		"longitude": 39.192505,
		"round": 2,
		"countryId": "saudi-arabia",
		"circuitId": "jeddah",
		"tbc": false,
		"fp1": "2024-03-07T13:30:00Z",
		"fp2": "2024-03-07T17:00:00Z",
		"fp3": "2024-03-08T13:30:00Z",
		"qualifying": "2024-03-08T17:00:00Z",
		"gp": "2024-03-09T17:00:00Z"
	},
	{
		"name": "Australian",
		"location": "Melbourne",
		"latitude": -37.8373,
		"longitude": 144.9666,
		"round": 3,
		"countryId": "australia",
		"circuitId": "melbourne",
		"tbc": false,
		"fp1": "2024-03-22T01:30:00Z",
		"fp2": "2024-03-22T05:00:00Z",
		"fp3": "2024-03-23T01:30:00Z",
		"qualifying": "2024-03-23T05:00:00Z",
		"gp": "2024-03-24T05:00:00Z"
	},
	{
		"name": "Japanese",
		"location": "Suzuka",
		"latitude": 35.3689,
		"longitude": 138.9256,
		"round": 4,
		"countryId": "japan",
		"circuitId": "suzuka",
		"tbc": false,
		"fp1": "2024-04-05T03:30:00Z",
		"fp2": "2024-04-05T07:00:00Z",
		"fp3": "2024-04-06T03:30:00Z",
		"qualifying": "2024-04-06T07:00:00Z",
		"gp": "2024-04-07T06:00:00Z"
	},
	{
		"name": "Chinese",
		"location": "Shanghai",
		"latitude": 31.3807,
		"longitude": 121.2498,
		"round": 5,
		"countryId": "china",
		"circuitId": "shanghai",
		"tbc": true,
		"fp1": "2024-04-19T03:00:00Z",
		"fp2": "2024-04-19T07:00:00Z",
		"fp3": "2024-04-20T04:00:00Z",
		"qualifying": "2024-04-20T07:00:00Z",
		"gp": "2024-04-21T07:10:00Z"
	},
	{
		"name": "Miami",
		"location": "Miami",
		"latitude": 25.957764,
		"longitude": -80.238835,
		"round": 6,
		"countryId": "united-states-of-america",
		"circuitId": "miami",
		"tbc": true,
		"fp1": "2024-05-03T19:00:00Z",
		"fp2": "2024-05-03T22:30:00Z",
		"fp3": "2024-05-04T17:30:00Z",
		"qualifying": "2024-05-04T21:00:00Z",
		"gp": "2024-05-05T20:30:00Z"
	},
	{
		"name": "Emilia Romagna",
		"location": "Imola",
		"latitude": 44.344576,
		"longitude": 11.713808,
		"round": 7,
		"countryId": "italy",
		"circuitId": "imola",
		"tbc": false,
		"fp1": "2024-05-17T12:30:00Z",
		"fp2": "2024-05-17T16:00:00Z",
		"fp3": "2024-05-18T11:30:00Z",
		"qualifying": "2024-05-18T15:30:00Z",
		"gp": "2024-05-19T14:00:00Z"
	},
	{
		"name": "Monaco",
		"location": "Monte Carlo",
		"latitude": 43.7338,
		"longitude": 7.4215,
		"round": 8,
		"countryId": "monaco",
		"circuitId": "monaco",
		"tbc": false,
		"fp1": "2024-05-24T12:30:00Z",
		"fp2": "2024-05-24T16:00:00Z",
		"fp3": "2024-05-25T11:30:00Z",
		"qualifying": "2024-05-25T15:00:00Z",
		"gp": "2024-05-26T14:00:00Z"
	},
	{
		"name": "Canadian",
		"location": "Montreal",
		"latitude": 45.5034,
		"longitude": -73.5267,
		"round": 9,
		"countryId": "united-kingdom",
		"circuitId": "montreal",
		"tbc": false,
		"fp1": "2024-06-07T18:30:00Z",
		"fp2": "2024-06-07T22:30:00Z",
		"fp3": "2024-06-08T17:30:00Z",
		"qualifying": "2024-06-08T21:00:00Z",
		"gp": "2024-06-09T19:00:00Z"
	},
	{
		"name": "Spanish",
		"location": "Catalunya",
		"latitude": 41.5638,
		"longitude": 2.2585,
		"round": 10,
		"countryId": "spain",
		"circuitId": "catalunya",
		"tbc": false,
		"fp1": "2024-06-21T12:30:00Z",
		"fp2": "2024-06-21T16:00:00Z",
		"fp3": "2024-06-22T11:30:00Z",
		"qualifying": "2024-06-22T15:00:00Z",
		"gp": "2024-06-23T14:00:00Z"
	},
	{
		"name": "Austrian",
		"location": "Spielberg",
		"latitude": 47.2225,
		"longitude": 14.7607,
		"round": 11,
		"countryId": "austria",
		"circuitId": "spielberg",
		"tbc": true,
		"fp1": "2024-06-28T12:30:00Z",
		"fp2": "2024-06-28T16:00:00Z",
		"fp3": "2024-06-29T11:00:00Z",
		"qualifying": "2024-06-29T15:30:00Z",
		"gp": "2024-06-30T14:00:00Z"
	},
	{
		"name": "British",
		"location": "Silverstone",
		"latitude": 52.0706,
		"longitude": -1.0174,
		"round": 12,
		"countryId": "united-kingdom",
		"circuitId": "silverstone",
		"tbc": false,
		"fp1": "2024-07-05T12:30:00Z",
		"fp2": "2024-07-05T16:00:00Z",
		"fp3": "2024-07-06T11:30:00Z",
		"qualifying": "2024-07-06T15:00:00Z",
		"gp": "2024-07-07T15:00:00Z"
	},
	{
		"name": "Hungarian",
		"location": "Budapest",
		"latitude": 47.583,
		"longitude": 19.2526,
		"round": 13,
		"countryId": "hungary",
		"circuitId": "hungaroring",
		"tbc": false,
		"fp1": "2024-07-19T12:30:00Z",
		"fp2": "2024-07-19T16:00:00Z",
		"fp3": "2024-07-20T11:30:00Z",
		"qualifying": "2024-07-20T15:00:00Z",
		"gp": "2024-07-21T14:00:00Z"
	},
	{
		"name": "Belgian",
		"location": "Spa-Francorchamps",
		"latitude": 50.444,
		"longitude": 5.9687,
		"round": 14,
		"countryId": "belgium",
		"circuitId": "spa-francorchamps",
		"tbc": false,
		"fp1": "2024-07-26T12:30:00Z",
		"fp2": "2024-07-26T16:00:00Z",
		"fp3": "2024-07-27T11:30:00Z",
		"qualifying": "2024-07-27T15:00:00Z",
		"gp": "2024-07-28T14:00:00Z"
	},
	{
		"name": "Dutch",
		"location": "Zandvoort",
		"latitude": 52.388408,
		"longitude": 4.547122,
		"round": 15,
		"countryId": "netherlands",
		"circuitId": "zandvoort",
		"tbc": false,
		"fp1": "2024-08-23T11:30:00Z",
		"fp2": "2024-08-23T15:00:00Z",
		"fp3": "2024-08-24T10:30:00Z",
		"qualifying": "2024-08-24T14:00:00Z",
		"gp": "2024-08-25T14:00:00Z"
	},
	{
		"name": "Italian",
		"location": "Monza",
		"latitude": 45.6169,
		"longitude": 9.2825,
		"round": 16,
		"countryId": "italy",
		"circuitId": "monza",
		"tbc": false,
		"fp1": "2024-08-30T12:30:00Z",
		"fp2": "2024-08-30T16:00:00Z",
		"fp3": "2024-08-31T11:30:00Z",
		"qualifying": "2024-08-31T15:00:00Z",
		"gp": "2024-09-01T14:00:00Z"
	},
	{
		"name": "Azerbaijan",
		"location": "Baku",
		"latitude": 40.3699,
		"longitude": 49.8433,
		"round": 17,
		"countryId": "azerbaijan",
		"circuitId": "baku",
		"tbc": false,
		"fp1": "2024-09-13T10:30:00Z",
		"fp2": "2024-09-13T14:00:00Z",
		"fp3": "2024-09-14T09:30:00Z",
		"qualifying": "2024-09-14T13:00:00Z",
		"gp": "2024-09-15T12:00:00Z"
	},
	{
		"name": "Singapore",
		"location": "Singapore",
		"latitude": 1.2857,
		"longitude": 103.8575,
		"round": 18,
		"countryId": "singapore",
		"circuitId": "marina-bay",
		"tbc": false,
		"fp1": "2024-09-20T10:30:00Z",
		"fp2": "2024-09-20T14:00:00Z",
		"fp3": "2024-09-21T10:30:00Z",
		"qualifying": "2024-09-21T14:00:00Z",
		"gp": "2024-09-22T13:00:00Z"
	},
	{
		"name": "United States",
		"location": "Austin",
		"latitude": 30.1328,
		"longitude": -97.6411,
		"round": 19,
		"countryId": "united-states-of-america",
		"circuitId": "austin",
		"tbc": true,
		"fp1": "2024-10-18T18:30:00Z",
		"fp2": "2024-10-18T22:00:00Z",
		"fp3": "2024-10-19T18:30:00Z",
		"qualifying": "2024-10-19T23:00:00Z",
		"gp": "2024-10-20T20:00:00Z"
	},
	{
		"name": "Mexican",
		"location": "Mexico City",
		"latitude": 19.4028,
		"longitude": -99.0986,
		"round": 20,
		"countryId": "mexico",
		"circuitId": "mexico-city",
		"tbc": false,
		"fp1": "2024-10-25T19:30:00Z",
		"fp2": "2024-10-25T23:00:00Z",
		"fp3": "2024-10-26T18:30:00Z",
		"qualifying": "2024-10-26T22:00:00Z",
		"gp": "2024-10-27T20:00:00Z"
	},
	{
		"name": "Brazilian",
		"location": "Sao Paulo",
		"latitude": -23.7014,
		"longitude": -46.6969,
		"round": 21,
		"countryId": "brazil",
		"circuitId": "interlagos",
		"tbc": true,
		"fp1": "2024-11-01T14:30:00Z",
		"fp2": "2024-11-01T18:00:00Z",
		"fp3": "2024-11-02T14:00:00Z",
		"qualifying": "2024-11-02T18:30:00Z",
		"gp": "2024-11-03T17:00:00Z"
	},
	{
		"name": "Las Vegas",
		"location": "Las Vegas",
		"latitude": 36.166747,
		"longitude": -115.148708,
		"round": 22,
		"countryId": "united-states-of-america",
		"circuitId": "las-vegas",
		"tbc": true,
		"fp1": "2024-11-21T04:30:00Z",
		"fp2": "2024-11-21T08:00:00Z",
		"fp3": "2024-11-22T04:30:00Z",
		"qualifying": "2024-11-22T08:00:00Z",
		"gp": "2024-11-23T06:00:00Z"
	},
	{
		"name": "Qatar",
		"location": "Doha",
		"latitude": 25.490292,
		"longitude": 51.45303,
		"round": 23,
		"countryId": "qatar",
		"circuitId": "losail",
		"tbc": true,
		"fp1": "2024-11-29T13:30:00Z",
		"fp2": "2024-11-29T17:00:00Z",
		"fp3": "2024-11-30T13:20:00Z",
		"qualifying": "2024-11-30T17:30:00Z",
		"gp": "2024-12-01T17:00:00Z"
	},
	{
		"name": "Abu Dhabi",
		"location": "Yas Marina",
		"latitude": 24.4821,
		"longitude": 54.3482,
		"round": 24,
		"countryId": "united-arab-emirates",
		"circuitId": "yas-marina",
		"tbc": false,
		"fp1": "2024-12-06T09:30:00Z",
		"fp2": "2024-12-06T13:00:00Z",
		"fp3": "2024-12-07T10:30:00Z",
		"qualifying": "2024-12-07T14:00:00Z",
		"gp": "2024-12-08T13:00:00Z"
	}
]
